{"type":"FeatureCollection","features":[{"type":"Feature","properties":{"name":"Белокаменная","line":"МЦК"},"geometry":{"type":"Point","coordinates":[37.70006,55.830205]}},{"type":"Feature","properties":{"name":"Лефортово","line":"МЦК"},"geometry":{"type":"Point","coordinates":[37.746065,55.762795]}},{"type":"Feature","properties":{"name":"Канатчиково","line":"МЦК"},"geometry":{"type":"Point","coordinates":[37.591367,55.70177]}},{"type":"Feature","properties":{"name":"Кожухово","line":"МЦК"},"geometry":{"type":"Point","coordinates":[37.651286,55.699905]}},{"type":"Feature","properties":{"name":"Пресня","line":"МЦК"},"geometry":{"type":"Point","coordinates":[37.517107,55.766597]}},{"type":"Feature","properties":{"name":"Угрешская","line":"МЦК"},"geometry":{"type":"Point","coordinates":[37.687445,55.715477]}},{"type":"Feature","properties":{"name":"Серебряный Бор","line":"МЦК"},"geometry":{"type":"Point","coordinates":[37.495455,55.803171]}},{"type":"Feature","properties":{"name":"Владыкино-Московское","line":"МЦК"},"geometry":{"type":"Point","coordinates":[37.596271,55.847279]}},{"type":"Feature","properties":{"name":"Андроновка","line":"МЦК"},"geometry":{"type":"Point","coordinates":[37.733037,55.741104]}},{"type":"Feature","properties":{"name":"Лихоборы","line":"МЦК"},"geometry":{"type":"Point","coordinates":[37.530476,55.842712]}},{"type":"Feature","properties":{"name":"Черкизово","line":"МЦК"},"geometry":{"type":"Point","coordinates":[37.746685,55.803016]}},{"type":"Feature","properties":{"name":"Ростокино","line":"МЦК"},"geometry":{"type":"Point","coordinates":[37.65692,55.842716]}},{"type":"Feature","properties":{"name":"Подольск","line":"МЦД-2"},"geometry":{"type":"Point","coordinates":[37.565417,55.431799]}},{"type":"Feature","properties":{"name":"Павшино","line":"МЦД-2"},"geometry":{"type":"Point","coordinates":[37.339515,55.814898]}},{"type":"Feature","properties":{"name":"Курьяново","line":"МЦД-2"},"geometry":{"type":"Point","coordinates":[37.70139,55.649835]}},{"type":"Feature","properties":{"name":"Тушинская","line":"МЦД-2"},"geometry":{"type":"Point","coordinates":[37.4411,55.827052]}},{"type":"Feature","properties":{"name":"Красный Строитель","line":"МЦД-2"},"geometry":{"type":"Point","coordinates":[37.615322,55.590378]}},{"type":"Feature","properties":{"name":"Подмосковная","line":"МЦД-2"},"geometry":{"type":"Point","coordinates":[37.526957,55.81453]}},{"type":"Feature","properties":{"name":"Нахабино","line":"МЦД-2"},"geometry":{"type":"Point","coordinates":[37.184911,55.841588]}},{"type":"Feature","properties":{"name":"Остафьево","line":"МЦД-2"},"geometry":{"type":"Point","coordinates":[37.554925,55.485589]}},{"type":"Feature","properties":{"name":"Москва-Товарная","line":"МЦД-2"},"geometry":{"type":"Point","coordinates":[37.689308,55.745199]}},{"type":"Feature","properties":{"name":"Люблино-Сортировочное","line":"МЦД-2"},"geometry":{"type":"Point","coordinates":[37.728164,55.674206]}},{"type":"Feature","properties":{"name":"Царицыно","line":"МЦД-2"},"geometry":{"type":"Point","coordinates":[37.668848,55.618515]}},{"type":"Feature","properties":{"name":"Москва-Пассажирская-Курская","line":"МЦД-2"},"geometry":{"type":"Point","coordinates":[37.662788,55.757678]}},{"type":"Feature","properties":{"name":"Щербинка","line":"МЦД-2"},"geometry":{"type":"Point","coordinates":[37.562184,55.510125]}},{"type":"Feature","properties":{"name":"","line":"МЦД-2"},"geometry":{"type":"Point","coordinates":[37.73239,55.692596]}},{"type":"Feature","properties":{"name":"","line":"МЦД-2"},"geometry":{"type":"Point","coordinates":[37.729516,55.707534]}},{"type":"Feature","properties":{"name":"","line":"МЦД-2"},"geometry":{"type":"Point","coordinates":[37.713017,55.724897]}}]}