{"type":"FeatureCollection","features":[{"type":"Feature","properties":{"name":"Авиамоторная","lines":["8","11","D3"]},"geometry":{"type":"Point","coordinates":[37.720322,55.752261]}},{"type":"Feature","properties":{"name":"Автозаводская","lines":["2","МЦК"]},"geometry":{"type":"Point","coordinates":[37.660467,55.706853]}},{"type":"Feature","properties":{"name":"Академическая","lines":["6","16"]},"geometry":{"type":"Point","coordinates":[37.574728,55.68738]}},{"type":"Feature","properties":{"name":"Александровский сад","lines":["4А","4"]},"geometry":{"type":"Point","coordinates":[37.608668,55.752402]}},{"type":"Feature","properties":{"name":"Алексеевская","lines":["6"]},"geometry":{"type":"Point","coordinates":[37.639006,55.809089]}},{"type":"Feature","properties":{"name":"Алма-Атинская","lines":["2"]},"geometry":{"type":"Point","coordinates":[37.765932,55.632799]}},{"type":"Feature","properties":{"name":"Алтуфьево","lines":["9"]},"geometry":{"type":"Point","coordinates":[37.587361,55.897919]}},{"type":"Feature","properties":{"name":"Аминьевская","lines":["11","D4"]},"geometry":{"type":"Point","coordinates":[37.467255,55.697629]}},{"type":"Feature","properties":{"name":"Андроновка","lines":["D3","МЦК"]},"geometry":{"type":"Point","coordinates":[37.739241,55.745841]}},{"type":"Feature","properties":{"name":"Аникеевка","lines":["D2"]},"geometry":{"type":"Point","coordinates":[37.220026,55.832049]}},{"type":"Feature","properties":{"name":"Аннино","lines":["9"]},"geometry":{"type":"Point","coordinates":[37.596536,55.582523]}},{"type":"Feature","properties":{"name":"Апрелевка","lines":["D4"]},"geometry":{"type":"Point","coordinates":[37.066784,55.550155]}},{"type":"Feature","properties":{"name":"Арбатская","lines":["3","4А","4"]},"geometry":{"type":"Point","coordinates":[37.603816,55.751974]}},{"type":"Feature","properties":{"name":"Аэропорт","lines":["2"]},"geometry":{"type":"Point","coordinates":[37.533141,55.800402]}},{"type":"Feature","properties":{"name":"Аэропорт Внуково","lines":["8А"]},"geometry":{"type":"Point","coordinates":[37.287276,55.607308]}},{"type":"Feature","properties":{"name":"Бабушкинская","lines":["6"]},"geometry":{"type":"Point","coordinates":[37.664103,55.869635]}},{"type":"Feature","properties":{"name":"Багратионовская","lines":["4"]},"geometry":{"type":"Point","coordinates":[37.497751,55.743731]}},{"type":"Feature","properties":{"name":"Баковка","lines":["D1"]},"geometry":{"type":"Point","coordinates":[37.31465,55.68259]}},{"type":"Feature","properties":{"name":"Балтийская","lines":["МЦК"]},"geometry":{"type":"Point","coordinates":[37.496389,55.82589]}},{"type":"Feature","properties":{"name":"Баррикадная","lines":["7"]},"geometry":{"type":"Point","coordinates":[37.579303,55.761132]}},{"type":"Feature","properties":{"name":"Бауманская","lines":["3"]},"geometry":{"type":"Point","coordinates":[37.68052,55.773026]}},{"type":"Feature","properties":{"name":"Беговая","lines":["7","D1"]},"geometry":{"type":"Point","coordinates":[37.543527,55.772704]}},{"type":"Feature","properties":{"name":"Белокаменная","lines":["МЦК"]},"geometry":{"type":"Point","coordinates":[37.702463,55.829301]}},{"type":"Feature","properties":{"name":"Беломорская","lines":["2"]},"geometry":{"type":"Point","coordinates":[37.475116,55.865083]}},{"type":"Feature","properties":{"name":"Белорусская","lines":["2","5","D1","D4"]},"geometry":{"type":"Point","coordinates":[37.5819,55.776591]}},{"type":"Feature","properties":{"name":"Беляево","lines":["6"]},"geometry":{"type":"Point","coordinates":[37.52568,55.642777]}},{"type":"Feature","properties":{"name":"Бескудниково","lines":["D1"]},"geometry":{"type":"Point","coordinates":[37.567668,55.882648]}},{"type":"Feature","properties":{"name":"Бибирево","lines":["9"]},"geometry":{"type":"Point","coordinates":[37.603557,55.883872]}},{"type":"Feature","properties":{"name":"Библиотека имени Ленина","lines":["1"]},"geometry":{"type":"Point","coordinates":[37.610204,55.751303]}},{"type":"Feature","properties":{"name":"Битца","lines":["D2"]},"geometry":{"type":"Point","coordinates":[37.611566,55.571287]}},{"type":"Feature","properties":{"name":"Битцевский парк","lines":["12"]},"geometry":{"type":"Point","coordinates":[37.556378,55.60024]}},{"type":"Feature","properties":{"name":"Борисово","lines":["10"]},"geometry":{"type":"Point","coordinates":[37.743751,55.633304]}},{"type":"Feature","properties":{"name":"Боровицкая","lines":["9"]},"geometry":{"type":"Point","coordinates":[37.607056,55.750971]}},{"type":"Feature","properties":{"name":"Боровское шоссе","lines":["8А"]},"geometry":{"type":"Point","coordinates":[37.370432,55.647752]}},{"type":"Feature","properties":{"name":"Ботанический сад","lines":["6","МЦК"]},"geometry":{"type":"Point","coordinates":[37.638958,55.845198]}},{"type":"Feature","properties":{"name":"Братиславская","lines":["10"]},"geometry":{"type":"Point","coordinates":[37.750655,55.659746]}},{"type":"Feature","properties":{"name":"Бульвар Адмирала Ушакова","lines":["12"]},"geometry":{"type":"Point","coordinates":[37.543222,55.545423]}},{"type":"Feature","properties":{"name":"Бульвар Дмитрия Донского","lines":["9"]},"geometry":{"type":"Point","coordinates":[37.57687,55.569244]}},{"type":"Feature","properties":{"name":"Бульвар Рокоссовского","lines":["1","МЦК"]},"geometry":{"type":"Point","coordinates":[37.735847,55.815865]}},{"type":"Feature","properties":{"name":"Бунинская аллея","lines":["12"]},"geometry":{"type":"Point","coordinates":[37.516543,55.538149]}},{"type":"Feature","properties":{"name":"Бутово","lines":["D2"]},"geometry":{"type":"Point","coordinates":[37.570569,55.541346]}},{"type":"Feature","properties":{"name":"Бутырская","lines":["10"]},"geometry":{"type":"Point","coordinates":[37.602473,55.813395]}},{"type":"Feature","properties":{"name":"Быково","lines":["D3"]},"geometry":{"type":"Point","coordinates":[38.07134,55.626575]}},{"type":"Feature","properties":{"name":"ВДНХ","lines":["6"]},"geometry":{"type":"Point","coordinates":[37.641409,55.821104]}},{"type":"Feature","properties":{"name":"Вавиловская","lines":["16"]},"geometry":{"type":"Point","coordinates":[37.540894,55.684891]}},{"type":"Feature","properties":{"name":"Варшавская","lines":["11"]},"geometry":{"type":"Point","coordinates":[37.619502,55.653334]}},{"type":"Feature","properties":{"name":"Верхние Котлы","lines":["МЦК"]},"geometry":{"type":"Point","coordinates":[37.618866,55.690131]}},{"type":"Feature","properties":{"name":"Верхние Лихоборы","lines":["10"]},"geometry":{"type":"Point","coordinates":[37.561328,55.856129]}},{"type":"Feature","properties":{"name":"Вешняки","lines":["D3"]},"geometry":{"type":"Point","coordinates":[37.799068,55.722122]}},{"type":"Feature","properties":{"name":"Владыкино","lines":["9","МЦК"]},"geometry":{"type":"Point","coordinates":[37.591302,55.847254]}},{"type":"Feature","properties":{"name":"Внуково","lines":["D4"]},"geometry":{"type":"Point","coordinates":[37.269527,55.648962]}},{"type":"Feature","properties":{"name":"Водники","lines":["D1"]},"geometry":{"type":"Point","coordinates":[37.512382,55.952646]}},{"type":"Feature","properties":{"name":"Водный стадион","lines":["2"]},"geometry":{"type":"Point","coordinates":[37.486709,55.840057]}},{"type":"Feature","properties":{"name":"Войковская","lines":["2"]},"geometry":{"type":"Point","coordinates":[37.498019,55.819047]}},{"type":"Feature","properties":{"name":"Волгоградский проспект","lines":["7"]},"geometry":{"type":"Point","coordinates":[37.686883,55.725241]}},{"type":"Feature","properties":{"name":"Волжская","lines":["10"]},"geometry":{"type":"Point","coordinates":[37.753094,55.690826]}},{"type":"Feature","properties":{"name":"Волоколамская","lines":["3","D2"]},"geometry":{"type":"Point","coordinates":[37.382355,55.833829]}},{"type":"Feature","properties":{"name":"Воробьёвы горы","lines":["1"]},"geometry":{"type":"Point","coordinates":[37.559291,55.710333]}},{"type":"Feature","properties":{"name":"Воронцовская","lines":["11"]},"geometry":{"type":"Point","coordinates":[37.539478,55.658836]}},{"type":"Feature","properties":{"name":"Выхино","lines":["7","D3"]},"geometry":{"type":"Point","coordinates":[37.816876,55.716095]}},{"type":"Feature","properties":{"name":"Генерала Тюленева","lines":["16"]},"geometry":{"type":"Point","coordinates":[37.485771,55.626205]}},{"type":"Feature","properties":{"name":"Говорово","lines":["8А"]},"geometry":{"type":"Point","coordinates":[37.417235,55.659552]}},{"type":"Feature","properties":{"name":"Гражданская","lines":["D2"]},"geometry":{"type":"Point","coordinates":[37.553229,55.805554]}},{"type":"Feature","properties":{"name":"Грачёвская","lines":["D3"]},"geometry":{"type":"Point","coordinates":[37.509443,55.869804]}},{"type":"Feature","properties":{"name":"Давыдково","lines":["11"]},"geometry":{"type":"Point","coordinates":[37.451742,55.715144]}},{"type":"Feature","properties":{"name":"Дегунино","lines":["D1"]},"geometry":{"type":"Point","coordinates":[37.57309,55.865917]}},{"type":"Feature","properties":{"name":"Деловой Центр","lines":["4А"]},"geometry":{"type":"Point","coordinates":[37.541374,55.750082]}},{"type":"Feature","properties":{"name":"Деловой центр","lines":["8А"]},"geometry":{"type":"Point","coordinates":[37.539182,55.74911]}},{"type":"Feature","properties":{"name":"Депо","lines":["D2"]},"geometry":{"type":"Point","coordinates":[37.728167,55.67421]}},{"type":"Feature","properties":{"name":"Динамо","lines":["2"]},"geometry":{"type":"Point","coordinates":[37.558207,55.789739]}},{"type":"Feature","properties":{"name":"Дмитровская","lines":["9","D2"]},"geometry":{"type":"Point","coordinates":[37.580067,55.807248]}},{"type":"Feature","properties":{"name":"Добрынинская","lines":["5"]},"geometry":{"type":"Point","coordinates":[37.624419,55.729107]}},{"type":"Feature","properties":{"name":"Долгопрудная","lines":["D1"]},"geometry":{"type":"Point","coordinates":[37.519986,55.940128]}},{"type":"Feature","properties":{"name":"Домодедовская","lines":["2"]},"geometry":{"type":"Point","coordinates":[37.718658,55.610841]}},{"type":"Feature","properties":{"name":"Достоевская","lines":["10"]},"geometry":{"type":"Point","coordinates":[37.615074,55.781461]}},{"type":"Feature","properties":{"name":"Дубровка","lines":["10"]},"geometry":{"type":"Point","coordinates":[37.675539,55.719213]}},{"type":"Feature","properties":{"name":"Дубровка","lines":["МЦК"]},"geometry":{"type":"Point","coordinates":[37.677803,55.712679]}},{"type":"Feature","properties":{"name":"Есенинская","lines":["D3"]},"geometry":{"type":"Point","coordinates":[38.183428,55.582354]}},{"type":"Feature","properties":{"name":"Железнодорожная","lines":["D4"]},"geometry":{"type":"Point","coordinates":[38.008962,55.752335]}},{"type":"Feature","properties":{"name":"Жулебино","lines":["7"]},"geometry":{"type":"Point","coordinates":[37.856294,55.685438]}},{"type":"Feature","properties":{"name":"ЗИЛ","lines":["16","МЦК"]},"geometry":{"type":"Point","coordinates":[37.646392,55.697407]}},{"type":"Feature","properties":{"name":"Зеленоград-Крюково","lines":["D3"]},"geometry":{"type":"Point","coordinates":[37.173734,55.980098]}},{"type":"Feature","properties":{"name":"Зорге","lines":["МЦК"]},"geometry":{"type":"Point","coordinates":[37.504362,55.788494]}},{"type":"Feature","properties":{"name":"Зюзино","lines":["11"]},"geometry":{"type":"Point","coordinates":[37.573551,55.655777]}},{"type":"Feature","properties":{"name":"Зябликово","lines":["10"]},"geometry":{"type":"Point","coordinates":[37.745178,55.612239]}},{"type":"Feature","properties":{"name":"Измайлово","lines":["МЦК"]},"geometry":{"type":"Point","coordinates":[37.743156,55.789579]}},{"type":"Feature","properties":{"name":"Измайловская","lines":["3"]},"geometry":{"type":"Point","coordinates":[37.781652,55.787751]}},{"type":"Feature","properties":{"name":"Ильинская","lines":["D3"]},"geometry":{"type":"Point","coordinates":[38.100261,55.616347]}},{"type":"Feature","properties":{"name":"Ипподром","lines":["D3"]},"geometry":{"type":"Point","coordinates":[38.238985,55.560483]}},{"type":"Feature","properties":{"name":"Калитники","lines":["D2"]},"geometry":{"type":"Point","coordinates":[37.70266,55.733672]}},{"type":"Feature","properties":{"name":"Калужская","lines":["6"]},"geometry":{"type":"Point","coordinates":[37.54066,55.657226]}},{"type":"Feature","properties":{"name":"Кантемировская","lines":["2"]},"geometry":{"type":"Point","coordinates":[37.656542,55.63573]}},{"type":"Feature","properties":{"name":"Каховская","lines":["11"]},"geometry":{"type":"Point","coordinates":[37.598429,55.652903]}},{"type":"Feature","properties":{"name":"Каширская","lines":["2","11"]},"geometry":{"type":"Point","coordinates":[37.648713,55.655044]}},{"type":"Feature","properties":{"name":"Киевская","lines":["3","4А","4","5"]},"geometry":{"type":"Point","coordinates":[37.565523,55.744241]}},{"type":"Feature","properties":{"name":"Китай-город","lines":["6","7"]},"geometry":{"type":"Point","coordinates":[37.633311,55.755621]}},{"type":"Feature","properties":{"name":"Кленовый бульвар","lines":["11"]},"geometry":{"type":"Point","coordinates":[37.680736,55.674486]}},{"type":"Feature","properties":{"name":"Кожуховская","lines":["10"]},"geometry":{"type":"Point","coordinates":[37.684768,55.707422]}},{"type":"Feature","properties":{"name":"Кокошкино","lines":["D4"]},"geometry":{"type":"Point","coordinates":[37.171199,55.599723]}},{"type":"Feature","properties":{"name":"Коломенская","lines":["2"]},"geometry":{"type":"Point","coordinates":[37.663924,55.678483]}},{"type":"Feature","properties":{"name":"Коммунарка","lines":["16"]},"geometry":{"type":"Point","coordinates":[37.467977,55.574601]}},{"type":"Feature","properties":{"name":"Комсомольская","lines":["1","5"]},"geometry":{"type":"Point","coordinates":[37.655263,55.774896]}},{"type":"Feature","properties":{"name":"Коньково","lines":["6"]},"geometry":{"type":"Point","coordinates":[37.518977,55.633147]}},{"type":"Feature","properties":{"name":"Коптево","lines":["МЦК"]},"geometry":{"type":"Point","coordinates":[37.520107,55.839615]}},{"type":"Feature","properties":{"name":"Корниловская","lines":["16"]},"geometry":{"type":"Point","coordinates":[37.478989,55.598396]}},{"type":"Feature","properties":{"name":"Косино","lines":["15","D3"]},"geometry":{"type":"Point","coordinates":[37.849211,55.704645]}},{"type":"Feature","properties":{"name":"Котельники","lines":["7"]},"geometry":{"type":"Point","coordinates":[37.858513,55.674217]}},{"type":"Feature","properties":{"name":"Красково","lines":["D3"]},"geometry":{"type":"Point","coordinates":[37.982261,55.649869]}},{"type":"Feature","properties":{"name":"Красногвардейская","lines":["2"]},"geometry":{"type":"Point","coordinates":[37.744421,55.613694]}},{"type":"Feature","properties":{"name":"Красногорская","lines":["D2"]},"geometry":{"type":"Point","coordinates":[37.303187,55.814742]}},{"type":"Feature","properties":{"name":"Краснопресненская","lines":["5"]},"geometry":{"type":"Point","coordinates":[37.577312,55.761189]}},{"type":"Feature","properties":{"name":"Красносельская","lines":["1"]},"geometry":{"type":"Point","coordinates":[37.667654,55.780355]}},{"type":"Feature","properties":{"name":"Красные Ворота","lines":["1"]},"geometry":{"type":"Point","coordinates":[37.648987,55.76902]}},{"type":"Feature","properties":{"name":"Красный Балтиец","lines":["D2"]},"geometry":{"type":"Point","coordinates":[37.524875,55.815454]}},{"type":"Feature","properties":{"name":"Красный Строитель","lines":["D2"]},"geometry":{"type":"Point","coordinates":[37.615317,55.590377]}},{"type":"Feature","properties":{"name":"Кратово","lines":["D3"]},"geometry":{"type":"Point","coordinates":[38.160203,55.591826]}},{"type":"Feature","properties":{"name":"Крестьянская Застава","lines":["10"]},"geometry":{"type":"Point","coordinates":[37.667631,55.733263]}},{"type":"Feature","properties":{"name":"Кропоткинская","lines":["1"]},"geometry":{"type":"Point","coordinates":[37.603797,55.745436]}},{"type":"Feature","properties":{"name":"Крылатское","lines":["3"]},"geometry":{"type":"Point","coordinates":[37.408139,55.756589]}},{"type":"Feature","properties":{"name":"Крымская","lines":["16","МЦК"]},"geometry":{"type":"Point","coordinates":[37.607564,55.689796]}},{"type":"Feature","properties":{"name":"Крёкшино","lines":["D4"]},"geometry":{"type":"Point","coordinates":[37.109736,55.577811]}},{"type":"Feature","properties":{"name":"Кузнецкий Мост","lines":["7"]},"geometry":{"type":"Point","coordinates":[37.626138,55.76075]}},{"type":"Feature","properties":{"name":"Кузьминки","lines":["7"]},"geometry":{"type":"Point","coordinates":[37.765782,55.70561]}},{"type":"Feature","properties":{"name":"Кунцевская","lines":["3","4","11","D1"]},"geometry":{"type":"Point","coordinates":[37.447022,55.729086]}},{"type":"Feature","properties":{"name":"Курская","lines":["3","5","D2","D4"]},"geometry":{"type":"Point","coordinates":[37.660871,55.757633]}},{"type":"Feature","properties":{"name":"Курьяново","lines":["D2"]},"geometry":{"type":"Point","coordinates":[37.70138,55.649835]}},{"type":"Feature","properties":{"name":"Кусково","lines":["D4"]},"geometry":{"type":"Point","coordinates":[37.795394,55.739648]}},{"type":"Feature","properties":{"name":"Кутузовская","lines":["4","D4","МЦК"]},"geometry":{"type":"Point","coordinates":[37.533833,55.740579]}},{"type":"Feature","properties":{"name":"Кучино","lines":["D4"]},"geometry":{"type":"Point","coordinates":[37.95475,55.752115]}},{"type":"Feature","properties":{"name":"Левобережная","lines":["D3"]},"geometry":{"type":"Point","coordinates":[37.468802,55.886963]}},{"type":"Feature","properties":{"name":"Ленинский проспект","lines":["6"]},"geometry":{"type":"Point","coordinates":[37.5862,55.707621]}},{"type":"Feature","properties":{"name":"Лермонтовский проспект","lines":["7"]},"geometry":{"type":"Point","coordinates":[37.851976,55.701628]}},{"type":"Feature","properties":{"name":"Лесной Городок","lines":["D4"]},"geometry":{"type":"Point","coordinates":[37.218329,55.632258]}},{"type":"Feature","properties":{"name":"Лесопарковая","lines":["12"]},"geometry":{"type":"Point","coordinates":[37.576878,55.582093]}},{"type":"Feature","properties":{"name":"Лефортово","lines":["11"]},"geometry":{"type":"Point","coordinates":[37.706738,55.764735]}},{"type":"Feature","properties":{"name":"Лианозово","lines":["10","D1"]},"geometry":{"type":"Point","coordinates":[37.546884,55.898477]}},{"type":"Feature","properties":{"name":"Лихоборы","lines":["D3","МЦК"]},"geometry":{"type":"Point","coordinates":[37.551826,55.848724]}},{"type":"Feature","properties":{"name":"Лобня","lines":["D1"]},"geometry":{"type":"Point","coordinates":[37.484826,56.013508]}},{"type":"Feature","properties":{"name":"Локомотив","lines":["МЦК"]},"geometry":{"type":"Point","coordinates":[37.745968,55.804137]}},{"type":"Feature","properties":{"name":"Ломоносовский проспект","lines":["8А"]},"geometry":{"type":"Point","coordinates":[37.516217,55.707141]}},{"type":"Feature","properties":{"name":"Лубянка","lines":["1"]},"geometry":{"type":"Point","coordinates":[37.62789,55.759877]}},{"type":"Feature","properties":{"name":"Лужники","lines":["МЦК"]},"geometry":{"type":"Point","coordinates":[37.560967,55.720719]}},{"type":"Feature","properties":{"name":"Лухмановская","lines":["15"]},"geometry":{"type":"Point","coordinates":[37.901045,55.70851]}},{"type":"Feature","properties":{"name":"Люберцы I","lines":["D3"]},"geometry":{"type":"Point","coordinates":[37.896548,55.682361]}},{"type":"Feature","properties":{"name":"Люблино","lines":["10"]},"geometry":{"type":"Point","coordinates":[37.761909,55.675731]}},{"type":"Feature","properties":{"name":"Люблино","lines":["D2"]},"geometry":{"type":"Point","coordinates":[37.733982,55.68523]}},{"type":"Feature","properties":{"name":"Малаховка","lines":["D3"]},"geometry":{"type":"Point","coordinates":[38.007434,55.645406]}},{"type":"Feature","properties":{"name":"Марк","lines":["D1"]},"geometry":{"type":"Point","coordinates":[37.538425,55.904533]}},{"type":"Feature","properties":{"name":"Марксистская","lines":["8"]},"geometry":{"type":"Point","coordinates":[37.653533,55.741325]}},{"type":"Feature","properties":{"name":"Марьина Роща","lines":["10","11"]},"geometry":{"type":"Point","coordinates":[37.616361,55.796027]}},{"type":"Feature","properties":{"name":"Марьина Роща","lines":["D2","D4"]},"geometry":{"type":"Point","coordinates":[37.619306,55.800989]}},{"type":"Feature","properties":{"name":"Марьино","lines":["10"]},"geometry":{"type":"Point","coordinates":[37.743147,55.650018]}},{"type":"Feature","properties":{"name":"Матвеевская","lines":["D4"]},"geometry":{"type":"Point","coordinates":[37.481528,55.704557]}},{"type":"Feature","properties":{"name":"Маяковская","lines":["2"]},"geometry":{"type":"Point","coordinates":[37.595089,55.77017]}},{"type":"Feature","properties":{"name":"Медведково","lines":["6"]},"geometry":{"type":"Point","coordinates":[37.661539,55.887178]}},{"type":"Feature","properties":{"name":"Менделеевская","lines":["9"]},"geometry":{"type":"Point","coordinates":[37.601981,55.780961]}},{"type":"Feature","properties":{"name":"Мещерская","lines":["D4"]},"geometry":{"type":"Point","coordinates":[37.424611,55.666793]}},{"type":"Feature","properties":{"name":"Минская","lines":["8А","D4"]},"geometry":{"type":"Point","coordinates":[37.499206,55.724405]}},{"type":"Feature","properties":{"name":"Митино","lines":["3"]},"geometry":{"type":"Point","coordinates":[37.362211,55.845759]}},{"type":"Feature","properties":{"name":"Митьково","lines":["D3"]},"geometry":{"type":"Point","coordinates":[37.671427,55.785598]}},{"type":"Feature","properties":{"name":"Мичуринец","lines":["D4"]},"geometry":{"type":"Point","coordinates":[37.315547,55.646189]}},{"type":"Feature","properties":{"name":"Мичуринский проспект","lines":["8А","11"]},"geometry":{"type":"Point","coordinates":[37.484005,55.688811]}},{"type":"Feature","properties":{"name":"Мнёвники","lines":["11"]},"geometry":{"type":"Point","coordinates":[37.471398,55.761184]}},{"type":"Feature","properties":{"name":"Молжаниново","lines":["D3"]},"geometry":{"type":"Point","coordinates":[37.381324,55.924208]}},{"type":"Feature","properties":{"name":"Молодёжная","lines":["3"]},"geometry":{"type":"Point","coordinates":[37.416937,55.740757]}},{"type":"Feature","properties":{"name":"Москва-Сити","lines":["4А","D4","МЦК"]},"geometry":{"type":"Point","coordinates":[37.532182,55.748775]}},{"type":"Feature","properties":{"name":"Москва-Сити","lines":["D1"]},"geometry":{"type":"Point","coordinates":[37.531511,55.753799]}},{"type":"Feature","properties":{"name":"Москва-Товарная","lines":["D2"]},"geometry":{"type":"Point","coordinates":[37.689308,55.745197]}},{"type":"Feature","properties":{"name":"Москворечье","lines":["D2"]},"geometry":{"type":"Point","coordinates":[37.690066,55.641278]}},{"type":"Feature","properties":{"name":"Моссельмаш","lines":["D3"]},"geometry":{"type":"Point","coordinates":[37.528226,55.861779]}},{"type":"Feature","properties":{"name":"Мякинино","lines":["3"]},"geometry":{"type":"Point","coordinates":[37.385291,55.825202]}},{"type":"Feature","properties":{"name":"Нагатинская","lines":["9"]},"geometry":{"type":"Point","coordinates":[37.622415,55.682973]}},{"type":"Feature","properties":{"name":"Нагатинский Затон","lines":["11"]},"geometry":{"type":"Point","coordinates":[37.704313,55.684332]}},{"type":"Feature","properties":{"name":"Нагорная","lines":["9"]},"geometry":{"type":"Point","coordinates":[37.610277,55.671948]}},{"type":"Feature","properties":{"name":"Народное Ополчение","lines":["11"]},"geometry":{"type":"Point","coordinates":[37.485733,55.775735]}},{"type":"Feature","properties":{"name":"Нахабино","lines":["D2"]},"geometry":{"type":"Point","coordinates":[37.184926,55.841609]}},{"type":"Feature","properties":{"name":"Нахимовский проспект","lines":["9"]},"geometry":{"type":"Point","coordinates":[37.605629,55.66265]}},{"type":"Feature","properties":{"name":"Некрасовка","lines":["15"]},"geometry":{"type":"Point","coordinates":[37.928245,55.702849]}},{"type":"Feature","properties":{"name":"Немчиновка","lines":["D1"]},"geometry":{"type":"Point","coordinates":[37.375308,55.715903]}},{"type":"Feature","properties":{"name":"Нижегородская","lines":["11","15","D4","МЦК"]},"geometry":{"type":"Point","coordinates":[37.729407,55.732255]}},{"type":"Feature","properties":{"name":"Никольское","lines":["D4"]},"geometry":{"type":"Point","coordinates":[37.897152,55.759555]}},{"type":"Feature","properties":{"name":"Новаторская","lines":["11","16"]},"geometry":{"type":"Point","coordinates":[37.521577,55.670829]}},{"type":"Feature","properties":{"name":"Новогиреево","lines":["8"]},"geometry":{"type":"Point","coordinates":[37.816741,55.75177]}},{"type":"Feature","properties":{"name":"Новогиреево","lines":["D4"]},"geometry":{"type":"Point","coordinates":[37.818575,55.744235]}},{"type":"Feature","properties":{"name":"Новодачная","lines":["D1"]},"geometry":{"type":"Point","coordinates":[37.527997,55.924303]}},{"type":"Feature","properties":{"name":"Новокосино","lines":["8"]},"geometry":{"type":"Point","coordinates":[37.863772,55.745086]}},{"type":"Feature","properties":{"name":"Новокузнецкая","lines":["2"]},"geometry":{"type":"Point","coordinates":[37.629204,55.741418]}},{"type":"Feature","properties":{"name":"Новомосковская","lines":["1","16"]},"geometry":{"type":"Point","coordinates":[37.466562,55.560546]}},{"type":"Feature","properties":{"name":"Новопеределкино","lines":["8А"]},"geometry":{"type":"Point","coordinates":[37.355104,55.639626]}},{"type":"Feature","properties":{"name":"Новоподрезково","lines":["D3"]},"geometry":{"type":"Point","coordinates":[37.351002,55.937049]}},{"type":"Feature","properties":{"name":"Новослободская","lines":["5"]},"geometry":{"type":"Point","coordinates":[37.603475,55.779852]}},{"type":"Feature","properties":{"name":"Новохохловская","lines":["D2","МЦК"]},"geometry":{"type":"Point","coordinates":[37.714906,55.724622]}},{"type":"Feature","properties":{"name":"Новоясеневская","lines":["6"]},"geometry":{"type":"Point","coordinates":[37.554142,55.600992]}},{"type":"Feature","properties":{"name":"Новые Черёмушки","lines":["6"]},"geometry":{"type":"Point","coordinates":[37.554698,55.670279]}},{"type":"Feature","properties":{"name":"Одинцово","lines":["D1"]},"geometry":{"type":"Point","coordinates":[37.28268,55.672494]}},{"type":"Feature","properties":{"name":"Озёрная","lines":["8А"]},"geometry":{"type":"Point","coordinates":[37.448731,55.670502]}},{"type":"Feature","properties":{"name":"Окружная","lines":["10","D1","МЦК"]},"geometry":{"type":"Point","coordinates":[37.573044,55.847511]}},{"type":"Feature","properties":{"name":"Окская","lines":["15"]},"geometry":{"type":"Point","coordinates":[37.781763,55.718342]}},{"type":"Feature","properties":{"name":"Октябрьская","lines":["5","6"]},"geometry":{"type":"Point","coordinates":[37.610153,55.730136]}},{"type":"Feature","properties":{"name":"Октябрьское Поле","lines":["7"]},"geometry":{"type":"Point","coordinates":[37.493814,55.793369]}},{"type":"Feature","properties":{"name":"Ольгино","lines":["D4"]},"geometry":{"type":"Point","coordinates":[37.978747,55.751738]}},{"type":"Feature","properties":{"name":"Ольховая","lines":["1"]},"geometry":{"type":"Point","coordinates":[37.459262,55.568741]}},{"type":"Feature","properties":{"name":"Опалиха","lines":["D2"]},"geometry":{"type":"Point","coordinates":[37.248538,55.82276]}},{"type":"Feature","properties":{"name":"Орехово","lines":["2"]},"geometry":{"type":"Point","coordinates":[37.694971,55.613143]}},{"type":"Feature","properties":{"name":"Останкино","lines":["D3"]},"geometry":{"type":"Point","coordinates":[37.603315,55.817548]}},{"type":"Feature","properties":{"name":"Остафьево","lines":["D2"]},"geometry":{"type":"Point","coordinates":[37.554919,55.485587]}},{"type":"Feature","properties":{"name":"Отдых","lines":["D3"]},"geometry":{"type":"Point","coordinates":[38.137074,55.601313]}},{"type":"Feature","properties":{"name":"Отрадное","lines":["9"]},"geometry":{"type":"Point","coordinates":[37.604653,55.863186]}},{"type":"Feature","properties":{"name":"Охотный Ряд","lines":["1"]},"geometry":{"type":"Point","coordinates":[37.616498,55.757765]}},{"type":"Feature","properties":{"name":"Очаково","lines":["D4"]},"geometry":{"type":"Point","coordinates":[37.451388,55.683694]}},{"type":"Feature","properties":{"name":"Павелецкая","lines":["2","5"]},"geometry":{"type":"Point","coordinates":[37.637991,55.731409]}},{"type":"Feature","properties":{"name":"Павшино","lines":["D2"]},"geometry":{"type":"Point","coordinates":[37.339517,55.814897]}},{"type":"Feature","properties":{"name":"Панки","lines":["D3"]},"geometry":{"type":"Point","coordinates":[37.922442,55.669032]}},{"type":"Feature","properties":{"name":"Панфиловская","lines":["МЦК"]},"geometry":{"type":"Point","coordinates":[37.499027,55.79901]}},{"type":"Feature","properties":{"name":"Парк Культуры","lines":["1","5"]},"geometry":{"type":"Point","coordinates":[37.592811,55.735702]}},{"type":"Feature","properties":{"name":"Парк Победы","lines":["3","8А"]},"geometry":{"type":"Point","coordinates":[37.517482,55.736463]}},{"type":"Feature","properties":{"name":"Партизанская","lines":["3"]},"geometry":{"type":"Point","coordinates":[37.750981,55.788502]}},{"type":"Feature","properties":{"name":"Пенягино","lines":["D2"]},"geometry":{"type":"Point","coordinates":[37.361376,55.823388]}},{"type":"Feature","properties":{"name":"Первомайская","lines":["3"]},"geometry":{"type":"Point","coordinates":[37.799393,55.794697]}},{"type":"Feature","properties":{"name":"Переделкино","lines":["D4"]},"geometry":{"type":"Point","coordinates":[37.355614,55.656369]}},{"type":"Feature","properties":{"name":"Перерва","lines":["D2"]},"geometry":{"type":"Point","coordinates":[37.716228,55.660859]}},{"type":"Feature","properties":{"name":"Перово","lines":["8"]},"geometry":{"type":"Point","coordinates":[37.78649,55.751194]}},{"type":"Feature","properties":{"name":"Перово","lines":["D3"]},"geometry":{"type":"Point","coordinates":[37.76431,55.735726]}},{"type":"Feature","properties":{"name":"Петровский парк","lines":["11"]},"geometry":{"type":"Point","coordinates":[37.557095,55.791925]}},{"type":"Feature","properties":{"name":"Петровско-Разумовская","lines":["9","10","D1"]},"geometry":{"type":"Point","coordinates":[37.576013,55.835674]}},{"type":"Feature","properties":{"name":"Петровско-Разумовская","lines":["D3"]},"geometry":{"type":"Point","coordinates":[37.568719,55.839621]}},{"type":"Feature","properties":{"name":"Печатники","lines":["10","11","D2"]},"geometry":{"type":"Point","coordinates":[37.728859,55.693619]}},{"type":"Feature","properties":{"name":"Пионерская","lines":["4"]},"geometry":{"type":"Point","coordinates":[37.467168,55.735993]}},{"type":"Feature","properties":{"name":"Планерная","lines":["7"]},"geometry":{"type":"Point","coordinates":[37.436523,55.860655]}},{"type":"Feature","properties":{"name":"Площадь Гагарина","lines":["МЦК"]},"geometry":{"type":"Point","coordinates":[37.586395,55.706966]}},{"type":"Feature","properties":{"name":"Площадь Ильича","lines":["8"]},"geometry":{"type":"Point","coordinates":[37.683359,55.747185]}},{"type":"Feature","properties":{"name":"Площадь Революции","lines":["3"]},"geometry":{"type":"Point","coordinates":[37.621785,55.756651]}},{"type":"Feature","properties":{"name":"Площадь трёх вокзалов","lines":["D2","D4"]},"geometry":{"type":"Point","coordinates":[37.651619,55.776224]}},{"type":"Feature","properties":{"name":"Плющево","lines":["D3"]},"geometry":{"type":"Point","coordinates":[37.774066,55.730798]}},{"type":"Feature","properties":{"name":"Победа","lines":["D4"]},"geometry":{"type":"Point","coordinates":[37.092746,55.566069]}},{"type":"Feature","properties":{"name":"Подольск","lines":["D2"]},"geometry":{"type":"Point","coordinates":[37.565421,55.431795]}},{"type":"Feature","properties":{"name":"Подрезково","lines":["D3"]},"geometry":{"type":"Point","coordinates":[37.330208,55.942673]}},{"type":"Feature","properties":{"name":"Поклонная","lines":["D4"]},"geometry":{"type":"Point","coordinates":[37.520771,55.73212]}},{"type":"Feature","properties":{"name":"Покровское","lines":["D2"]},"geometry":{"type":"Point","coordinates":[37.631924,55.602761]}},{"type":"Feature","properties":{"name":"Полежаевская","lines":["7"]},"geometry":{"type":"Point","coordinates":[37.519273,55.777555]}},{"type":"Feature","properties":{"name":"Полянка","lines":["9"]},"geometry":{"type":"Point","coordinates":[37.617189,55.738161]}},{"type":"Feature","properties":{"name":"Потапово","lines":["1"]},"geometry":{"type":"Point","coordinates":[37.49262,55.55264]}},{"type":"Feature","properties":{"name":"Пражская","lines":["9"]},"geometry":{"type":"Point","coordinates":[37.604526,55.612379]}},{"type":"Feature","properties":{"name":"Преображенская площадь","lines":["1"]},"geometry":{"type":"Point","coordinates":[37.715346,55.796374]}},{"type":"Feature","properties":{"name":"Прокшино","lines":["1"]},"geometry":{"type":"Point","coordinates":[37.43385,55.586219]}},{"type":"Feature","properties":{"name":"Пролетарская","lines":["7"]},"geometry":{"type":"Point","coordinates":[37.665872,55.731857]}},{"type":"Feature","properties":{"name":"Проспект Вернадского","lines":["1","11"]},"geometry":{"type":"Point","coordinates":[37.504994,55.677827]}},{"type":"Feature","properties":{"name":"Проспект Мира","lines":["5","6"]},"geometry":{"type":"Point","coordinates":[37.631865,55.780242]}},{"type":"Feature","properties":{"name":"Профсоюзная","lines":["6"]},"geometry":{"type":"Point","coordinates":[37.562904,55.67793]}},{"type":"Feature","properties":{"name":"Пушкинская","lines":["7"]},"geometry":{"type":"Point","coordinates":[37.607428,55.765427]}},{"type":"Feature","properties":{"name":"Пыхтино","lines":["8А"]},"geometry":{"type":"Point","coordinates":[37.295667,55.624502]}},{"type":"Feature","properties":{"name":"Пятницкое шоссе","lines":["3"]},"geometry":{"type":"Point","coordinates":[37.354213,55.856126]}},{"type":"Feature","properties":{"name":"Рабочий посёлок","lines":["D1"]},"geometry":{"type":"Point","coordinates":[37.418511,55.726835]}},{"type":"Feature","properties":{"name":"Раменки","lines":["8А"]},"geometry":{"type":"Point","coordinates":[37.49854,55.697566]}},{"type":"Feature","properties":{"name":"Раменское","lines":["D3"]},"geometry":{"type":"Point","coordinates":[38.225521,55.565091]}},{"type":"Feature","properties":{"name":"Рассказовка","lines":["8А"]},"geometry":{"type":"Point","coordinates":[37.335087,55.634026]}},{"type":"Feature","properties":{"name":"Реутов","lines":["D4"]},"geometry":{"type":"Point","coordinates":[37.855679,55.751483]}},{"type":"Feature","properties":{"name":"Речной вокзал","lines":["2"]},"geometry":{"type":"Point","coordinates":[37.476209,55.855016]}},{"type":"Feature","properties":{"name":"Рижская","lines":["6","11","D2"]},"geometry":{"type":"Point","coordinates":[37.637151,55.79339]}},{"type":"Feature","properties":{"name":"Римская","lines":["10"]},"geometry":{"type":"Point","coordinates":[37.683242,55.746421]}},{"type":"Feature","properties":{"name":"Ростокино","lines":["МЦК"]},"geometry":{"type":"Point","coordinates":[37.666836,55.839652]}},{"type":"Feature","properties":{"name":"Румянцево","lines":["1"]},"geometry":{"type":"Point","coordinates":[37.441585,55.632954]}},{"type":"Feature","properties":{"name":"Рязанский проспект","lines":["7"]},"geometry":{"type":"Point","coordinates":[37.793315,55.716949]}},{"type":"Feature","properties":{"name":"Савёловская","lines":["9","11","D1","D4"]},"geometry":{"type":"Point","coordinates":[37.588707,55.793811]}},{"type":"Feature","properties":{"name":"Саларьево","lines":["1"]},"geometry":{"type":"Point","coordinates":[37.42419,55.621918]}},{"type":"Feature","properties":{"name":"Салтыковская","lines":["D4"]},"geometry":{"type":"Point","coordinates":[37.923137,55.757589]}},{"type":"Feature","properties":{"name":"Санино","lines":["D4"]},"geometry":{"type":"Point","coordinates":[37.138268,55.584024]}},{"type":"Feature","properties":{"name":"Свиблово","lines":["6"]},"geometry":{"type":"Point","coordinates":[37.652704,55.855212]}},{"type":"Feature","properties":{"name":"Севастопольская","lines":["9"]},"geometry":{"type":"Point","coordinates":[37.598437,55.652675]}},{"type":"Feature","properties":{"name":"Селигерская","lines":["10"]},"geometry":{"type":"Point","coordinates":[37.547191,55.866575]}},{"type":"Feature","properties":{"name":"Семёновская","lines":["3"]},"geometry":{"type":"Point","coordinates":[37.721234,55.783304]}},{"type":"Feature","properties":{"name":"Серп и молот","lines":["D4"]},"geometry":{"type":"Point","coordinates":[37.682182,55.748229]}},{"type":"Feature","properties":{"name":"Серпуховская","lines":["9"]},"geometry":{"type":"Point","coordinates":[37.624833,55.727948]}},{"type":"Feature","properties":{"name":"Сетунь","lines":["D1"]},"geometry":{"type":"Point","coordinates":[37.396826,55.72356]}},{"type":"Feature","properties":{"name":"Силикатная","lines":["D2"]},"geometry":{"type":"Point","coordinates":[37.555444,55.470435]}},{"type":"Feature","properties":{"name":"Сколково","lines":["D1"]},"geometry":{"type":"Point","coordinates":[37.342656,55.70006]}},{"type":"Feature","properties":{"name":"Славянский бульвар","lines":["3","D1"]},"geometry":{"type":"Point","coordinates":[37.471543,55.72995]}},{"type":"Feature","properties":{"name":"Смоленская","lines":["3","4А","4"]},"geometry":{"type":"Point","coordinates":[37.582545,55.748147]}},{"type":"Feature","properties":{"name":"Сокол","lines":["2"]},"geometry":{"type":"Point","coordinates":[37.515115,55.805251]}},{"type":"Feature","properties":{"name":"Соколиная Гора","lines":["МЦК"]},"geometry":{"type":"Point","coordinates":[37.745021,55.771326]}},{"type":"Feature","properties":{"name":"Сокольники","lines":["1","11"]},"geometry":{"type":"Point","coordinates":[37.679754,55.789497]}},{"type":"Feature","properties":{"name":"Солнечная","lines":["D4"]},"geometry":{"type":"Point","coordinates":[37.385124,55.657278]}},{"type":"Feature","properties":{"name":"Солнцево","lines":["8А"]},"geometry":{"type":"Point","coordinates":[37.391217,55.649694]}},{"type":"Feature","properties":{"name":"Сортировочная","lines":["D3"]},"geometry":{"type":"Point","coordinates":[37.720776,55.763566]}},{"type":"Feature","properties":{"name":"Спартак","lines":["7"]},"geometry":{"type":"Point","coordinates":[37.435759,55.818297]}},{"type":"Feature","properties":{"name":"Спортивная","lines":["1"]},"geometry":{"type":"Point","coordinates":[37.564211,55.723391]}},{"type":"Feature","properties":{"name":"Сретенский бульвар","lines":["10"]},"geometry":{"type":"Point","coordinates":[37.640093,55.766988]}},{"type":"Feature","properties":{"name":"Стахановская","lines":["15"]},"geometry":{"type":"Point","coordinates":[37.753247,55.727018]}},{"type":"Feature","properties":{"name":"Стрешнево","lines":["D2","МЦК"]},"geometry":{"type":"Point","coordinates":[37.488544,55.814467]}},{"type":"Feature","properties":{"name":"Строгино","lines":["3"]},"geometry":{"type":"Point","coordinates":[37.403085,55.803701]}},{"type":"Feature","properties":{"name":"Студенческая","lines":["4"]},"geometry":{"type":"Point","coordinates":[37.548381,55.738822]}},{"type":"Feature","properties":{"name":"Сухаревская","lines":["6"]},"geometry":{"type":"Point","coordinates":[37.631203,55.772955]}},{"type":"Feature","properties":{"name":"Сходненская","lines":["7"]},"geometry":{"type":"Point","coordinates":[37.439775,55.850485]}},{"type":"Feature","properties":{"name":"Сходня","lines":["D3"]},"geometry":{"type":"Point","coordinates":[37.299324,55.949583]}},{"type":"Feature","properties":{"name":"Таганская","lines":["5","7"]},"geometry":{"type":"Point","coordinates":[37.65163,55.741081]}},{"type":"Feature","properties":{"name":"Тверская","lines":["2"]},"geometry":{"type":"Point","coordinates":[37.606262,55.764915]}},{"type":"Feature","properties":{"name":"Театральная","lines":["2"]},"geometry":{"type":"Point","coordinates":[37.619188,55.757501]}},{"type":"Feature","properties":{"name":"Текстильщики","lines":["7","11","D2"]},"geometry":{"type":"Point","coordinates":[37.729834,55.707784]}},{"type":"Feature","properties":{"name":"Терехово","lines":["11"]},"geometry":{"type":"Point","coordinates":[37.459643,55.748029]}},{"type":"Feature","properties":{"name":"Технопарк","lines":["2"]},"geometry":{"type":"Point","coordinates":[37.664439,55.693624]}},{"type":"Feature","properties":{"name":"Тимирязевская","lines":["9","D1"]},"geometry":{"type":"Point","coordinates":[37.576197,55.818171]}},{"type":"Feature","properties":{"name":"Толстопальцево","lines":["D4"]},"geometry":{"type":"Point","coordinates":[37.185814,55.607607]}},{"type":"Feature","properties":{"name":"Томилино","lines":["D3"]},"geometry":{"type":"Point","coordinates":[37.955041,55.655075]}},{"type":"Feature","properties":{"name":"Третьяковская","lines":["6","8"]},"geometry":{"type":"Point","coordinates":[37.627308,55.741101]}},{"type":"Feature","properties":{"name":"Трикотажная","lines":["D2"]},"geometry":{"type":"Point","coordinates":[37.398935,55.833151]}},{"type":"Feature","properties":{"name":"Тропарёво","lines":["1"]},"geometry":{"type":"Point","coordinates":[37.472524,55.645858]}},{"type":"Feature","properties":{"name":"Трубная","lines":["10"]},"geometry":{"type":"Point","coordinates":[37.619547,55.769118]}},{"type":"Feature","properties":{"name":"Тульская","lines":["9"]},"geometry":{"type":"Point","coordinates":[37.622817,55.708664]}},{"type":"Feature","properties":{"name":"Тургеневская","lines":["6"]},"geometry":{"type":"Point","coordinates":[37.637468,55.766492]}},{"type":"Feature","properties":{"name":"Тушинская","lines":["7","D2"]},"geometry":{"type":"Point","coordinates":[37.439035,55.826794]}},{"type":"Feature","properties":{"name":"Тютчевская","lines":["16"]},"geometry":{"type":"Point","coordinates":[37.481085,55.61905]}},{"type":"Feature","properties":{"name":"Тёплый Стан","lines":["6"]},"geometry":{"type":"Point","coordinates":[37.508255,55.618821]}},{"type":"Feature","properties":{"name":"Угрешская","lines":["МЦК"]},"geometry":{"type":"Point","coordinates":[37.69764,55.718497]}},{"type":"Feature","properties":{"name":"Удельная","lines":["D3"]},"geometry":{"type":"Point","coordinates":[38.044237,55.634565]}},{"type":"Feature","properties":{"name":"Улица 1905 года","lines":["7"]},"geometry":{"type":"Point","coordinates":[37.561342,55.764861]}},{"type":"Feature","properties":{"name":"Улица Академика Янгеля","lines":["9"]},"geometry":{"type":"Point","coordinates":[37.600436,55.59499]}},{"type":"Feature","properties":{"name":"Улица Горчакова","lines":["12"]},"geometry":{"type":"Point","coordinates":[37.530714,55.541692]}},{"type":"Feature","properties":{"name":"Улица Дмитриевского","lines":["15"]},"geometry":{"type":"Point","coordinates":[37.880202,55.710104]}},{"type":"Feature","properties":{"name":"Улица Скобелевская","lines":["12"]},"geometry":{"type":"Point","coordinates":[37.554625,55.54811]}},{"type":"Feature","properties":{"name":"Улица Старокачаловская","lines":["12"]},"geometry":{"type":"Point","coordinates":[37.57665,55.568954]}},{"type":"Feature","properties":{"name":"Университет","lines":["1"]},"geometry":{"type":"Point","coordinates":[37.533284,55.692663]}},{"type":"Feature","properties":{"name":"Университет дружбы народов","lines":["16"]},"geometry":{"type":"Point","coordinates":[37.507143,55.647937]}},{"type":"Feature","properties":{"name":"Ухтомская","lines":["D3"]},"geometry":{"type":"Point","coordinates":[37.864271,55.698654]}},{"type":"Feature","properties":{"name":"Фабричная","lines":["D3"]},"geometry":{"type":"Point","coordinates":[38.206495,55.572892]}},{"type":"Feature","properties":{"name":"Физтех","lines":["10"]},"geometry":{"type":"Point","coordinates":[37.546576,55.921661]}},{"type":"Feature","properties":{"name":"Филатов Луг","lines":["1"]},"geometry":{"type":"Point","coordinates":[37.407664,55.601387]}},{"type":"Feature","properties":{"name":"Фили","lines":["4","D1"]},"geometry":{"type":"Point","coordinates":[37.514729,55.745095]}},{"type":"Feature","properties":{"name":"Филёвский парк","lines":["4"]},"geometry":{"type":"Point","coordinates":[37.483374,55.739512]}},{"type":"Feature","properties":{"name":"Фирсановская","lines":["D3"]},"geometry":{"type":"Point","coordinates":[37.249225,55.960731]}},{"type":"Feature","properties":{"name":"Фонвизинская","lines":["10"]},"geometry":{"type":"Point","coordinates":[37.587641,55.822919]}},{"type":"Feature","properties":{"name":"Фрунзенская","lines":["1"]},"geometry":{"type":"Point","coordinates":[37.57833,55.72688]}},{"type":"Feature","properties":{"name":"Химки","lines":["D3"]},"geometry":{"type":"Point","coordinates":[37.453657,55.893609]}},{"type":"Feature","properties":{"name":"Хлебниково","lines":["D1"]},"geometry":{"type":"Point","coordinates":[37.504512,55.970958]}},{"type":"Feature","properties":{"name":"Ховрино","lines":["2","D3"]},"geometry":{"type":"Point","coordinates":[37.484147,55.878659]}},{"type":"Feature","properties":{"name":"Хорошёво","lines":["МЦК"]},"geometry":{"type":"Point","coordinates":[37.507382,55.777146]}},{"type":"Feature","properties":{"name":"Хорошёвская","lines":["11"]},"geometry":{"type":"Point","coordinates":[37.519125,55.776692]}},{"type":"Feature","properties":{"name":"ЦСКА","lines":["11"]},"geometry":{"type":"Point","coordinates":[37.533201,55.786563]}},{"type":"Feature","properties":{"name":"Царицыно","lines":["2","D2"]},"geometry":{"type":"Point","coordinates":[37.668591,55.619517]}},{"type":"Feature","properties":{"name":"Цветной бульвар","lines":["9"]},"geometry":{"type":"Point","coordinates":[37.617896,55.770875]}},{"type":"Feature","properties":{"name":"Черкизовская","lines":["1"]},"geometry":{"type":"Point","coordinates":[37.745033,55.80388]}},{"type":"Feature","properties":{"name":"Чертановская","lines":["9"]},"geometry":{"type":"Point","coordinates":[37.606684,55.640456]}},{"type":"Feature","properties":{"name":"Чеховская","lines":["9"]},"geometry":{"type":"Point","coordinates":[37.609068,55.764823]}},{"type":"Feature","properties":{"name":"Чистые пруды","lines":["1"]},"geometry":{"type":"Point","coordinates":[37.639024,55.765868]}},{"type":"Feature","properties":{"name":"Чкаловская","lines":["10"]},"geometry":{"type":"Point","coordinates":[37.656966,55.756723]}},{"type":"Feature","properties":{"name":"Чухлинка","lines":["D4"]},"geometry":{"type":"Point","coordinates":[37.764416,55.733618]}},{"type":"Feature","properties":{"name":"Шаболовская","lines":["6"]},"geometry":{"type":"Point","coordinates":[37.607696,55.719987]}},{"type":"Feature","properties":{"name":"Шелепиха","lines":["МЦК"]},"geometry":{"type":"Point","coordinates":[37.525665,55.757306]}},{"type":"Feature","properties":{"name":"Шереметьевская","lines":["D1"]},"geometry":{"type":"Point","coordinates":[37.49888,55.983733]}},{"type":"Feature","properties":{"name":"Шипиловская","lines":["10"]},"geometry":{"type":"Point","coordinates":[37.74364,55.621028]}},{"type":"Feature","properties":{"name":"Шоссе Энтузиастов","lines":["8","МЦК"]},"geometry":{"type":"Point","coordinates":[37.747751,55.758237]}},{"type":"Feature","properties":{"name":"Щербинка","lines":["D2"]},"geometry":{"type":"Point","coordinates":[37.562183,55.510129]}},{"type":"Feature","properties":{"name":"Щукинская","lines":["7","D2"]},"geometry":{"type":"Point","coordinates":[37.462481,55.809822]}},{"type":"Feature","properties":{"name":"Щёлковская","lines":["3"]},"geometry":{"type":"Point","coordinates":[37.798573,55.809337]}},{"type":"Feature","properties":{"name":"Электрозаводская","lines":["3","11","D3"]},"geometry":{"type":"Point","coordinates":[37.704052,55.781034]}},{"type":"Feature","properties":{"name":"Юго-Восточная","lines":["15"]},"geometry":{"type":"Point","coordinates":[37.818976,55.705036]}},{"type":"Feature","properties":{"name":"Юго-Западная","lines":["1"]},"geometry":{"type":"Point","coordinates":[37.483219,55.663654]}},{"type":"Feature","properties":{"name":"Южная","lines":["9"]},"geometry":{"type":"Point","coordinates":[37.609229,55.622259]}},{"type":"Feature","properties":{"name":"Ясенево","lines":["6"]},"geometry":{"type":"Point","coordinates":[37.533406,55.606306]}},{"type":"Feature","properties":{"name":"Яхромская","lines":["10"]},"geometry":{"type":"Point","coordinates":[37.545446,55.879879]}}]}